[
  {
    "name": "맥도날드 구의역점",
    "address": "서울 광진구 아차산로 376",
    "lat": 37.537437,
    "lng": 127.092294
  },
  {
    "name": "맥도날드 양재점",
    "address": "서울 서초구 강남대로 213",
    "lat": 37.484785,
    "lng": 127.035545
  },
  {
    "name": "맥도날드 홍제역점",
    "address": "서울 서대문구 통일로 442-1",
    "lat": 37.589011,
    "lng": 126.944832
  },
  {
    "name": "맥도날드 신월DT점",
    "address": "서울 양천구 남부순환로 404",
    "lat": 37.528292,
    "lng": 126.844954
  },
  {
    "name": "맥도날드 신도림디큐브점",
    "address": "서울 구로구 경인로 662 디큐브시티 지하2층",
    "lat": 37.508053,
    "lng": 126.889569
  },
  {
    "name": "맥도날드 방배점",
    "address": "서울 서초구 방배로 81",
    "lat": 37.484226,
    "lng": 126.997833
  },
  {
    "name": "맥도날드 연신내점",
    "address": "서울 은평구 연서로 213",
    "lat": 37.619906,
    "lng": 126.919714
  },
  {
    "name": "맥도날드 어린이대공원점",
    "address": "서울 광진구 광나루로 392",
    "lat": 37.547833,
    "lng": 127.074515
  },
  {
    "name": "맥도날드 은평이마트점",
    "address": "서울 은평구 은평로 111 8층",
    "lat": 37.602246,
    "lng": 126.929611
  },
  {
    "name": "맥도날드 장안사거리점",
    "address": "서울 동대문구 답십리로 291-1",
    "lat": 37.572329,
    "lng": 127.072713
  },
  {
    "name": "맥도날드 노량진점",
    "address": "서울 동작구 노량진로 158",
    "lat": 37.514326,
    "lng": 126.942452
  },
  {
    "name": "맥도날드 공덕점",
    "address": "서울 마포구 마포대로 53 마포트라펠리스 1층",
    "lat": 37.541857,
    "lng": 126.951482
  },
  {
    "name": "맥도날드 서울시청점",
    "address": "서울 중구 남대문로9길 51 1층",
    "lat": 37.565132,
    "lng": 126.978587
  },
  {
    "name": "맥도날드 신내점",
    "address": "서울 중랑구 봉화산로 194 신아타운1층",
    "lat": 37.612624,
    "lng": 127.098187
  },
  {
    "name": "맥도날드 목동점",
    "address": "서울 양천구 목동로 221",
    "lat": 37.545429,
    "lng": 126.864127
  },
  {
    "name": "맥도날드 파리공원점",
    "address": "서울 양천구 목동서로 45",
    "lat": 37.527982,
    "lng": 126.874388
  },
  {
    "name": "맥도날드 합정메세나폴리스점",
    "address": "서울 마포구 양화로 45 2층",
    "lat": 37.550695,
    "lng": 126.914995
  },
  {
    "name": "맥도날드 상계DT점",
    "address": "서울 노원구 동일로 1612",
    "lat": 37.660105,
    "lng": 127.066187
  },
  {
    "name": "맥도날드 가락DT점",
    "address": "서울 송파구 동남로 196",
    "lat": 37.494906,
    "lng": 127.143219
  },
  {
    "name": "맥도날드 한양대점",
    "address": "서울 성동구 왕십리로 227",
    "lat": 37.556031,
    "lng": 127.044784
  },
  {
    "name": "맥도날드 부천북부역점",
    "address": "경기 부천시 부천로 11",
    "lat": 37.484807,
    "lng": 126.783676
  },
  {
    "name": "맥도날드 부천원종DT점",
    "address": "경기 부천시 소사로 689",
    "lat": 37.522386,
    "lng": 126.806714
  },
  {
    "name": "맥도날드 부천역곡역DT점",
    "address": "경기 부천시 경인로 487",
    "lat": 37.484073,
    "lng": 126.783873
  },
  {
    "name": "맥도날드 중동DT점",
    "address": "경기 부천시 중동로262번길 94",
    "lat": 37.504266,
    "lng": 126.764493
  },
  {
    "name": "맥도날드 수원망포DT점",
    "address": "경기 수원시 영통구 덕영대로 1495",
    "lat": 37.242912,
    "lng": 127.05537
  },
  {
    "name": "맥도날드 수원정자DT점",
    "address": "경기 수원시 장안구 수성로 267",
    "lat": 37.302554,
    "lng": 127.00943
  },
  {
    "name": "맥도날드 수원화성DT점",
    "address": "경기 수원시 팔달구 경수대로 676",
    "lat": 37.278314,
    "lng": 127.016253
  },
  {
    "name": "맥도날드 용인신갈DT점",
    "address": "경기 용인시 기흥구 중부대로 266",
    "lat": 37.273142,
    "lng": 127.108077
  },
  {
    "name": "맥도날드 용인수지DT점",
    "address": "경기 용인시 수지구 신수로 677",
    "lat": 37.322081,
    "lng": 127.095278
  },
  {
    "name": "맥도날드 용인마북DT점",
    "address": "경기 용인시 기흥구 용구대로 2420",
    "lat": 37.297342,
    "lng": 127.116637
  },
  {
    "name": "맥도날드 성남신흥DT점",
    "address": "경기 성남시 수정구 수정로 306",
    "lat": 37.448908,
    "lng": 127.138047
  },
  {
    "name": "맥도날드 안양비산DT점",
    "address": "경기 안양시 동안구 경수대로 839",
    "lat": 37.399017,
    "lng": 126.961955
  },
  {
    "name": "맥도날드 평촌호계점",
    "address": "경기 안양시 동안구 평촌대로 137",
    "lat": 37.388574,
    "lng": 126.958034
  },
  {
    "name": "맥도날드 안양점",
    "address": "경기 안양시 만안구 안양로292번길 22",
    "lat": 37.4014,
    "lng": 126.922966
  },
  {
    "name": "맥도날드 동수원GS DT점",
    "address": "경기 수원시 영통구 창룡대로 370",
    "lat": 37.265516,
    "lng": 127.058372
  },
  {
    "name": "맥도날드 광명소하DT점",
    "address": "경기 광명시 오리로 512",
    "lat": 37.447858,
    "lng": 126.883774
  },
  {
    "name": "맥도날드 시흥은행점",
    "address": "경기 시흥시 대은로 90",
    "lat": 37.438736,
    "lng": 126.787106
  },
  {
    "name": "맥도날드 하남시청DT점",
    "address": "경기 하남시 대청로 25",
    "lat": 37.539522,
    "lng": 127.214256
  },
  {
    "name": "맥도날드 평택서정DT점",
    "address": "경기 평택시 경기대로 1395",
    "lat": 37.072231,
    "lng": 127.053019
  },
  {
    "name": "맥도날드 오산세교DT점",
    "address": "경기 오산시 경기대로 651",
    "lat": 37.148045,
    "lng": 127.075486
  }
]